{
    "capitalCities": [
        {
            "capitalCity": "Zurich",
            "lat": "47.37731332733458",
            "long": "8.540496826171875"
        },
        {
            "capitalCity": "Paris",
            "lat": "48.859519915404825",
            "long": "2.3519325256347656"
        },
        {
            "capitalCity": "Madrid",
            "lat": "40.419769381446194",
            "long": "-3.703937530517578"
        },
        {
            "capitalCity": "London",
            "lat": "51.5111997405872",
            "long": "-0.12908935546875"
        },
        {
            "capitalCity": "Berlin",
            "lat": "52.5270835964481",
            "long": "13.4033203125"
        },
        {
            "capitalCity": "Amsterdam",
            "lat": "52.376437538867776",
            "long": "4.8937225341796875"
        },
        {
            "capitalCity": "Rome",
            "lat": "41.90432124806034",
            "long": "12.497634887695312"
        },
        {
            "capitalCity": "Oslo",
            "lat": "59.91166445623312",
            "long": "10.7501220703125"
        },
        {
            "capitalCity": "Vienna",
            "lat": "48.20591371971207",
            "long": "16.371688842773438"
        }
    ]
}
